CLAVE SITIO,NOMBRE DEL SITIO,CUENCA,CLAVE ACUÍFERO,ACUÍFERO,ORGANISMO CUENCA,ESTADO,MUNICIPIO,CUERPO DE AGUA,TIPO DE CUERPO DE AGUA,SUBTIPO CUERPO AGUA,LATITUD,LONGITUD
OCPNO4445,CULIACAN NORTE  (A) AGUAS ARRIBA,RÍO CULIACÁN,,,PACÍFICO NORTE,SINALOA,CULIACÁN,DREN CEDRITOS,LÓTICO,DREN,24.82585,-107.50997
OCPNO4446,CULIACAN NORTE  (A) AGUAS ABAJO,RÍO CULIACÁN,,,PACÍFICO NORTE,SINALOA,CULIACÁN,DREN CEDRITOS,LÓTICO,DREN,24.8217,-107.52932
OCPNO4447,POZO CNA 7,,2504,RIO CULIACAN,PACÍFICO NORTE,SINALOA,CULIACÁN,ACUÍFERO RIO CULIACAN,SUBTERRÁNEO,POZO,24.79921,-107.42654
OCPNO4448,PUENTE NEGRO,RÍO CULIACÁN,,,PACÍFICO NORTE,SINALOA,CULIACÁN,RIO CULIACAN,LÓTICO,RÍO,24.80935,-107.41251
OCPNO4449,RIO CULIACAN 5,RÍO CULIACÁN,,,PACÍFICO NORTE,SINALOA,CULIACÁN,RIO CULIACAN,LÓTICO,CANAL,24.80789,-107.41048
OCPNO4449M1,RIO CULIACAN 5,RÍO CULIACÁN,,,PACÍFICO NORTE,SINALOA,CULIACÁN,RIO CULIACAN,LÓTICO,CANAL,24.8054,-107.40774
OCPNO4450,RIO TAMAZULA 1,RÍO CULIACÁN,,,PACÍFICO NORTE,SINALOA,CULIACÁN,RIO TAMAZULA,LÓTICO,RÍO,24.81233,-107.40237
OCPNO4451,RIO TAMAZULA PUENTE MORELOS,RÍO CULIACÁN,,,PACÍFICO NORTE,SINALOA,CULIACÁN,RIO TAMAZULA,LÓTICO,RÍO,24.81271,-107.391
OCPNO4452,RIO TAMAZULA PUENTE JUAREZ,RÍO CULIACÁN,,,PACÍFICO NORTE,SINALOA,CULIACÁN,RIO TAMAZULA,LÓTICO,RÍO,24.81912,-107.38099
OCPNO4453,RIO TAMAZULA 2,RÍO CULIACÁN,,,PACÍFICO NORTE,SINALOA,CULIACÁN,RIO TAMAZULA,LÓTICO,RÍO,24.81074,-107.32621
OCPNO4454,LOMA DE RODRIGUERA,,2504,RIO CULIACAN,PACÍFICO NORTE,SINALOA,CULIACÁN,ACUÍFERO RIO CULIACAN,SUBTERRÁNEO,POZO,24.87168,-107.40047
OCPNO4455,RIO CULIACAN PUENTE USE,RÍO CULIACÁN,,,PACÍFICO NORTE,SINALOA,CULIACÁN,RIO CULIACAN,LÓTICO,RÍO,24.79331,-107.44814
OCPNO4456,RIO CULIACAN 4,RÍO CULIACÁN,,,PACÍFICO NORTE,SINALOA,CULIACÁN,RIO CULIACAN,LÓTICO,RÍO,24.7901,-107.48228
OCPNO4457,PUENTE EL FERROCARRIL (CULIACANCITO),RÍO CULIACÁN,,,PACÍFICO NORTE,SINALOA,CULIACÁN,DREN MARGEN DERECHA,LÓTICO,DREN,24.81976,-107.53582
OCPNO4458,PUENTE EL PINOLE,RÍO CULIACÁN,,,PACÍFICO NORTE,SINALOA,CULIACÁN,DREN MARGEN DERECHA,LÓTICO,DREN,24.82238,-107.564
OCPNO4459,SAN PEDRO,RÍO CULIACÁN,,,PACÍFICO NORTE,SINALOA,NAVOLATO,RIO CULIACAN,LÓTICO,RÍO,24.78496,-107.55836
OCPNO4460,EL BATALLON (CNA-190MI),,2504,RIO CULIACAN,PACÍFICO NORTE,SINALOA,NAVOLATO,ACUÍFERO RIO CULIACAN,SUBTERRÁNEO,POZO,24.76754,-107.5839
OCPNO4460M1,POZO CNA 197 COFRADIA NAVOLATO,,2504,RIO CULIACAN,PACÍFICO NORTE,SINALOA,NAVOLATO,ACUÍFERO RIO CULIACAN,SUBTERRÁNEO,POZO,24.76599,-107.6446
OCPNO4461,POZO CNA RC-5,,2504,RIO CULIACAN,PACÍFICO NORTE,SINALOA,NAVOLATO,ACUÍFERO RIO CULIACAN,SUBTERRÁNEO,POZO,24.76621,-107.59661
OCPNO4462,POZO CNA 135,,2504,RIO CULIACAN,PACÍFICO NORTE,SINALOA,NAVOLATO,ACUÍFERO RIO CULIACAN,SUBTERRÁNEO,POZO,24.76086,-107.71181
OCPNO4463,DREN PRINCIPAL NAVOLATO AGUAS ARRIBA PTAR DE NAVOLATO,RÍO CULIACÁN,,,PACÍFICO NORTE,SINALOA,NAVOLATO,DREN PRINCIPAL NAVOLATO,LÓTICO,DREN,24.72352,-107.68215
OCPNO4463M1,DREN CHIRICAHUETO,GRUPO DE CORRIENTES PABELLONES,,,PACÍFICO NORTE,SINALOA,CULIACÁN,DREN CHIRICAHUETO,LÓTICO,DREN,24.59936,-107.48409
OCPNO4464,100M. AGUAS ABAJO DE LA DESCARGA MUNICIPAL,RÍO CULIACÁN,,,PACÍFICO NORTE,SINALOA,NAVOLATO,DREN PRINCIPAL NAVOLATO,LÓTICO,DREN,24.716753,-107.677918
OCPNO4464M1,RIO CULIACAN LA PIPIMA,RÍO CULIACÁN,,,PACÍFICO NORTE,SINALOA,NAVOLATO,RIO CULIACAN,LÓTICO,RÍO,24.69182,-107.69964
OCPNO4465,LAS TRANCAS,,2504,RIO CULIACAN,PACÍFICO NORTE,SINALOA,NAVOLATO,ACUÍFERO RIO CULIACAN,SUBTERRÁNEO,POZO,24.70395,-107.72429
OCPNO4466,PUENTE LIMONCITO,RÍO CULIACÁN,,,PACÍFICO NORTE,SINALOA,NAVOLATO,RIO CULIACAN,LÓTICO,RÍO,24.75625,-107.73146
OCPNO4467,RH10-2 SINALOA,RÍO CULIACÁN,,,PACÍFICO NORTE,SINALOA,NAVOLATO,RIO CULIACAN,LÓTICO - COSTERO,ESTERO,24.57455,-107.68145
OCPNO4467M1,RH10-2 SINALOA,RÍO CULIACÁN,,,PACÍFICO NORTE,SINALOA,NAVOLATO,RIO CULIACAN,LÓTICO,RÍO,24.62845,-107.6608
OCPNO4468,RIO CULIACAN 2,RÍO CULIACÁN,,,PACÍFICO NORTE,SINALOA,NAVOLATO,RIO CULIACAN,LÓTICO - COSTERO,ESTERO,24.5316,-107.70863
OCPNO4469,RIO CULIACAN 1,RÍO CULIACÁN,,,PACÍFICO NORTE,SINALOA,NAVOLATO,RIO CULIACAN,LÓTICO - COSTERO (HUMEDAL),ESTUARIO,24.49616,-107.73111
OCPNO4470,"BAHIA DE ALTATA SEG 37, 1 ISA10B",RÍO CULIACÁN,,,PACÍFICO NORTE,SINALOA,NAVOLATO,BAHIA DE ALTATA SEG,COSTERO (HUMEDAL),BAHIA,24.48918,-107.72367
OCPNO4471,ENSENADA PABELLONES 3,GRUPO DE CORRIENTES PABELLONES,,,PACÍFICO NORTE,SINALOA,CULIACÁN,CUERPO DE AGUA DEL HUMEDAL,COSTERO (HUMEDAL),BAHIA,24.49664,-107.77221
OCPNO4472,BAHIA DE ALTATA SALIDA,GRUPO DE CORRIENTES PABELLONES,,,PACÍFICO NORTE,SINALOA,CULIACÁN,BAHIA ALTATA SALIDA,COSTERO,BAHIA,24.52105,-107.8159
OCPNO4473,ENSENADA PABELLONES 2,RÍO CULIACÁN,,,PACÍFICO NORTE,SINALOA,NAVOLATO,CUERPO DE AGUA DEL HUMEDAL,COSTERO (HUMEDAL),BAHIA,24.46773,-107.62859
OCPNO4474,"NAVOLATO SEG 37, 2 ISA10B",RÍO CULIACÁN,,,PACÍFICO NORTE,SINALOA,NAVOLATO,BAHÍA ENSENADA PABELLONES,COSTERO (HUMEDAL),BAHIA,24.49834,-107.59052
OCPNO4475,LAGUNA CAIMANERO,GRUPO DE CORRIENTES PABELLONES,,,PACÍFICO NORTE,SINALOA,NAVOLATO,LAGUNA CAIMANERO,LÉNTICO (HUMEDAL),LAGO,24.61106,-107.61197
OCPNO4476,"KYARA, S.A. DE C.V. (AGUAS ARRIBA)",GRUPO DE CORRIENTES PABELLONES,,,PACÍFICO NORTE,SINALOA,CULIACÁN,DREN CHIRICAHUETO,LÓTICO,DREN,24.71012,-107.41465
OCPNO4477,"KYARA, S.A. DE C.V. (AGUAS ABAJO)",GRUPO DE CORRIENTES PABELLONES,,,PACÍFICO NORTE,SINALOA,CULIACÁN,DREN CHIRICAHUETO,LÓTICO,DREN,24.70513,-107.4192
OCPNO4478,RIO TAMAZULA 3,RÍO CULIACÁN,,,PACÍFICO NORTE,SINALOA,CULIACÁN,RIO TAMAZULA,LÓTICO,RÍO,24.85035,-107.29765
OCPNO4479,PRESA SANALONA 3,RÍO TAMAZULA,,,PACÍFICO NORTE,SINALOA,CULIACÁN,PRESA SINALOA,LÉNTICO (HUMEDAL),PRESA,24.83191,-107.13645
OCPNO4480,PRESA SANALONA 4,RÍO TAMAZULA,,,PACÍFICO NORTE,SINALOA,CULIACÁN,PRESA SINALOA,LÉNTICO (HUMEDAL),PRESA,24.82428,-107.12249
OCPNO4481,PRESA SANALONA 6,RÍO TAMAZULA,,,PACÍFICO NORTE,SINALOA,CULIACÁN,PRESA SINALOA,LÉNTICO (HUMEDAL),PRESA,24.83925,-107.1078
OCPNO4482,PRESA SANALONA 7,RÍO TAMAZULA,,,PACÍFICO NORTE,SINALOA,CULIACÁN,PRESA SINALOA,LÉNTICO (HUMEDAL),PRESA,24.8235,-107.11535
OCPNO4483,PRESA SANALONA 1,RÍO TAMAZULA,,,PACÍFICO NORTE,SINALOA,CULIACÁN,PRESA SANALONA,LÉNTICO (HUMEDAL),PRESA,24.82063,-107.13805
OCPNO4484,RÍO HUMAYA,RÍO CULIACÁN,,,PACÍFICO NORTE,SINALOA,CULIACÁN,RÍO HUMAYA,LÓTICO,RÍO,24.93979,-107.35484
OCPNO4485,RIO CULIACAN 7,RÍO CULIACÁN,,,PACÍFICO NORTE,SINALOA,CULIACÁN,RIO CULIACAN,LÓTICO,RÍO,25.01393,-107.38848
OCPNO4486,PRESA ADOLFO LOPEZ MATEOS 3,RÍO HUMAYA,,,PACÍFICO NORTE,SINALOA,BADIRAGUATO,PRESA ADOLFO LOPEZ MATEOS,LÉNTICO (HUMEDAL),PRESA,25.10275,-107.3889
OCPNO4487,PRESA ADOLFO LOPEZ MATEOS 2,RÍO HUMAYA,,,PACÍFICO NORTE,SINALOA,BADIRAGUATO,PRESA ADOLFO LOPEZ MATEOS,LÉNTICO (HUMEDAL),PRESA,25.16813,-107.39996
OCPNO4488,PRESA ADOLFO LOPEZ MATEOS 1,RÍO HUMAYA,,,PACÍFICO NORTE,SINALOA,BADIRAGUATO,PRESA ADOLFO LOPEZ MATEOS,LÉNTICO (HUMEDAL),PRESA,25.20128,-107.42565
OCPNO4489,PRESA ADOLFO LOPEZ MATEOS 4,RÍO HUMAYA,,,PACÍFICO NORTE,SINALOA,BADIRAGUATO,PRESA ADOLFO LOPEZ MATEOS,LÉNTICO (HUMEDAL),PRESA,25.1706,-107.39422
OCPNO4490,RIO BADIRAGUATO 2,RÍO HUMAYA,,,PACÍFICO NORTE,SINALOA,BADIRAGUATO,RIO BADIRAGUATO,LÓTICO,RÍO,25.3452,-107.5448
OCPNO4491,RIO BADIRAGUATO 1,RÍO HUMAYA,,,PACÍFICO NORTE,SINALOA,BADIRAGUATO,RIO BADIRAGUATO,LÓTICO,RÍO,25.40749,-107.55442
OCPNO4492,BOCA DE ARROYO (CNA-402),,2503,RIO MOCORITO,PACÍFICO NORTE,SINALOA,MOCORITO,ACUÍFERO RIO MOCORITO,SUBTERRÁNEO,POZO,25.46517,-107.97163
OCPNO4493,PRESA EUSTAQUIO BUELNA 5,RÍO MOCORITO 1,,,PACÍFICO NORTE,SINALOA,SALVADOR ALVARADO,PRESA EUSTAQUIO BUELNA,LÉNTICO (HUMEDAL),PRESA,25.4992,-108.04578
OCPNO4494,PRESA EUSTAQUIO BUELNA 3,RÍO MOCORITO 1,,,PACÍFICO NORTE,SINALOA,SALVADOR ALVARADO,PRESA EUSTAQUIO BUELNA,LÉNTICO (HUMEDAL),PRESA,25.5005,-108.06044
OCPNO4495,PRESA EUSTAQUIO BUELNA 2,RÍO MOCORITO 2,,,PACÍFICO NORTE,SINALOA,SALVADOR ALVARADO,PRESA EUSTAQUIO BUELNA,LÉNTICO (HUMEDAL),PRESA,25.48339,-108.06475
OCPNO4496,PRESA EUSTAQUIO BUELNA 4,RÍO MOCORITO 1,,,PACÍFICO NORTE,SINALOA,SALVADOR ALVARADO,PRESA EUSTAQUIO BUELNA,LÉNTICO (HUMEDAL),PRESA,25.51762,-108.05939
OCPNO4497,PRESA EUSTAQUIO BUELNA 6,RÍO MOCORITO 1,,,PACÍFICO NORTE,SINALOA,SALVADOR ALVARADO,PRESA EUSTAQUIO BUELNA,LÉNTICO (HUMEDAL),PRESA,25.5155,-108.03762
OCPNO4498,POZO CNA-159,,2503,RIO MOCORITO,PACÍFICO NORTE,SINALOA,SALVADOR ALVARADO,ACUÍFERO RIO MOCORITO,SUBTERRÁNEO,POZO,25.43721,-108.13171
OCPNO4499,POZO CNA 188,,2503,RIO MOCORITO,PACÍFICO NORTE,SINALOA,ANGOSTURA,ACUÍFERO RIO MOCORITO,SUBTERRÁNEO,POZO,25.29359,-108.19576
OCPNO4500,POZO CNA 1,,2503,RIO MOCORITO,PACÍFICO NORTE,SINALOA,ANGOSTURA,ACUÍFERO RIO MOCORITO,SUBTERRÁNEO,POZO,25.36881,-108.1502
OCPNO4501,SALIDA DE LA PRESA EUSTAQUIO BUELNA,RÍO MOCORITO 2,,,PACÍFICO NORTE,SINALOA,SALVADOR ALVARADO,RIO MOCORITO,LÓTICO (HUMEDAL),RÍO,25.469531,-108.089972
OCPNO4502,LAGUNA PLAYA COLORADA-SANTA MARIA LA REFORMA 3,GRUPO DE CORRIENTES HUYAQUI,,,PACÍFICO NORTE,SINALOA,GUASAVE,LAGUNA PLAYA COLORADA-SANTA MARIA LA REFORMA,COSTERO (HUMEDAL),LAGUNA,25.22018,-108.34882
OCPNO4503W1,RH10-1 SINALOA,RÍO SINALOA 2,,,PACÍFICO NORTE,SINALOA,GUASAVE,RIO SINALOA,LÓTICO (HUMEDAL),RÍO,25.32552,-108.45669
OCPNO4504,LA BRECHA,RÍO SINALOA 2,,,PACÍFICO NORTE,SINALOA,GUASAVE,RIO SINALOA,LÓTICO,RÍO,25.37127,-108.42355
OCPNO4505,RIO SINALOA 5,RÍO SINALOA 2,,,PACÍFICO NORTE,SINALOA,GUASAVE,RIO SINALOA,LÓTICO,RÍO,25.44581,-108.44489
OCPNO4506,RIO SINALOA 6,RÍO SINALOA 2,,,PACÍFICO NORTE,SINALOA,GUASAVE,RIO SINALOA,LÓTICO,RÍO,25.5491,-108.44778
OCPNO4507M1,PRESA LUIS DONALDO COLOSIO 1,RÍO FUERTE 1,,,PACÍFICO NORTE,SINALOA,CHOIX,RIO SINALOA,LÉNTICO (HUMEDAL),LAGO,26.89223,-108.36081
OCPNO4508,VADO DE GUASAVE,RÍO SINALOA 2,,,PACÍFICO NORTE,SINALOA,GUASAVE,RIO SINALOA,LÓTICO,RÍO,25.56385,-108.45573
OCPNO4509,POZO #1 BASE 10,,2502,RIO SINALOA,PACÍFICO NORTE,SINALOA,GUASAVE,ACUÍFERO RIO SINALOA,SUBTERRÁNEO,POZO,25.56787,-108.45831
OCPNO4510,POZO CNA EL VARAL,,2502,RIO SINALOA,PACÍFICO NORTE,SINALOA,GUASAVE,ACUÍFERO RIO SINALOA,SUBTERRÁNEO,POZO,25.6375,-108.4194
OCPNO4511,PUENTE LIC. ROBERTO CAMACHO,RÍO SINALOA 2,,,PACÍFICO NORTE,SINALOA,GUASAVE,ARROYO OCORONI,LÓTICO,ARROYO,25.589601,-108.459808
OCPNO4512,LA ENTRADA,,2502,RIO SINALOA,PACÍFICO NORTE,SINALOA,GUASAVE,ACUÍFERO RIO SINALOA,SUBTERRÁNEO,POZO,25.5882,-108.579
OCPNO4513,SISTEMA LAGUNAR SAN IGNACIO-NAVACHISTE-MACAPULE 1,GRUPO DE CORRIENTE TPOPOLOBAMPO,,,PACÍFICO NORTE,SINALOA,GUASAVE,CUERPO DE AGUA DEL HUMEDAL,COSTERO (HUMEDAL),LAGUNA,25.37967,-108.66451
OCPNO4514,SISTEMA LAGUNAR SAN IGNACIO-NAVACHISTE-MACAPULE 2,GRUPO DE CORRIENTE TPOPOLOBAMPO,,,PACÍFICO NORTE,SINALOA,GUASAVE,CUERPO DE AGUA DEL HUMEDAL,COSTERO (HUMEDAL),LAGUNA,25.4458,-108.80312
OCPNO4515,SISTEMA LAGUNAR SAN IGNACIO-NAVACHISTE-MACAPULE 4,GRUPO DE CORRIENTE TPOPOLOBAMPO,,,PACÍFICO NORTE,SINALOA,GUASAVE,CUERPO DE AGUA DEL HUMEDAL,COSTERO (HUMEDAL),LAGUNA,25.56324,-108.8618
OCPNO4516,"BAHIA DE OUHIRA TOPOLOBAMPO SEG 36, 4 ISA8A",GRUPO DE CORRIENTE TPOPOLOBAMPO,,,PACÍFICO NORTE,SINALOA,AHOME,BAHIA DE OUHIRA TOPOLOBAMPO SEG,COSTERO (HUMEDAL),BAHIA,25.60889,-108.94457
OCPNO4517,"BAHIA DE OUHIRA TOPOLOBAMPO SEG 3,6 ISA8A",GRUPO DE CORRIENTE TPOPOLOBAMPO,,,PACÍFICO NORTE,SINALOA,AHOME,BAHIA DE OUHIRA TOPOLOBAMPO SEG,COSTERO (HUMEDAL),BAHIA,25.66135,-108.94641
OCPNO4518,LAGUNAS DE SANTA MARIA TOPOLOBAMPO-OHUIRA 2,GRUPO DE CORRIENTE TPOPOLOBAMPO,,,PACÍFICO NORTE,SINALOA,AHOME,LAGUNAS DE SANTA MARIA TOPOLOBAMPO-OHUIRA,COSTERO (HUMEDAL),LAGUNA,25.65584,-108.99736
OCPNO4519,"FRENTE A PEMEX TOPOLOBAMPO SEG36, 1",GRUPO DE CORRIENTE TPOPOLOBAMPO,,,PACÍFICO NORTE,SINALOA,AHOME,LAGUNA DE SANTA MARIA TOPOLOBAMPO OHUIRA,COSTERO (HUMEDAL),LAGUNA,25.61304,-109.03641
OCPNO4520,"FRENTE A PEMEX TOPO.SEG 36, 2 SA8A",GRUPO DE CORRIENTE TPOPOLOBAMPO,,,PACÍFICO NORTE,SINALOA,AHOME,LAGUNA DE SANTA MARIA TOPOLOBAMPO OHUIRA,COSTERO (HUMEDAL),LAGUNA,25.60088,-109.03692
OCPNO4521,TOPOLOBAMPO MUELLE SEG36 3 ISA8A,GRUPO DE CORRIENTE TPOPOLOBAMPO,,,PACÍFICO NORTE,SINALOA,AHOME,LAGUNA DE SANTA MARIA TOPOLOBAMPO OHUIRA,COSTERO (HUMEDAL),LAGUNA,25.59797,-109.04398
OCPNO4522,LAGUNAS DE SANTA MARIA TOPOLOBAMPO-OHUIRA 1,GRUPO DE CORRIENTE TPOPOLOBAMPO,,,PACÍFICO NORTE,SINALOA,AHOME,LAGUNAS DE SANTA MARIA TOPOLOBAMPO-OHUIRA,COSTERO (HUMEDAL),LAGUNA,25.59692,-109.0983
OCPNO4523,SISTEMA LAGUNAR SAN IGNACIO-NAVACHISTE-MACAPULE 3,GRUPO DE CORRIENTE TPOPOLOBAMPO,,,PACÍFICO NORTE,SINALOA,AHOME,CUERPO DE AGUA DEL HUMEDAL,COSTERO (HUMEDAL),LAGUNA,25.49535,-109.00735
OCPNO4524,DREN MOCHICAHUI,GRUPO DE CORRIENTES TPOPOLOBAMPO,,,PACÍFICO NORTE,SINALOA,AHOME,DREN MOCHICAHUI,LÓTICO,DREN,25.6853,-109.03733
OCPNO4525W1,LOS MOCHIS  (A) AGUAS ABAJO,GRUPO DE CORRIENTES TPOPOLOBAMPO,,,PACÍFICO NORTE,SINALOA,AHOME,DREN JUAREZ,LÓTICO (HUMEDAL),DREN,25.70244,-109.06683
OCPNO4526,SAN MIGUEL ZAPOTITLAN,,2501,RIO FUERTE,PACÍFICO NORTE,SINALOA,AHOME,ACUÍFERO RIO FUERTE,SUBTERRÁNEO,POZO,25.93934,-109.03926
OCPNO4526M1,POZO 38 BAJADA DE SAN MIGUEL,,2501,RIO FUERTE,PACÍFICO NORTE,SINALOA,AHOME,ACUÍFERO DEL RIO FUERTE,SUBTERRÁNEO,POZO,25.94262,-109.01929
OCPNO4527,RIO FUERTE 1,RÍO FUERTE 2,,,PACÍFICO NORTE,SINALOA,AHOME,RIO FUERTE,LÓTICO,RÍO,25.93136,-109.13818
OCPNO4528,PUENTE SAN MIGUEL ZAPOTITLAN,RÍO FUERTE 2,,,PACÍFICO NORTE,SINALOA,AHOME,RIO FUERTE,LÓTICO (HUMEDAL),RÍO,25.95606,-109.05444
OCPNO4529,RIO FUERTE 2,RÍO FUERTE 2,,,PACÍFICO NORTE,SINALOA,EL FUERTE,RIO FUERTE,LÓTICO,RÍO,25.95684,-108.94002
OCPNO4530,PRESA DERIVADORA SUFRAGIO 1,RÍO FUERTE 2,,,PACÍFICO NORTE,SINALOA,EL FUERTE,PRESA DERIVADORA SUFRAGIO,LÉNTICO,PRESA,26.07131,-108.78381
OCPNO4531,POZO CNA-350 BOCA DE ARROYO,,2501,RIO FUERTE,PACÍFICO NORTE,SINALOA,EL FUERTE,ACUÍFERO RIO FUERTE,SUBTERRÁNEO,POZO,26.3226,-108.74541
OCPNO4532,PRESA JOSEFA ORTIZ DE DOMINGUEZ 1,RÍO FUERTE 2,,,PACÍFICO NORTE,SINALOA,EL FUERTE,PRESA JOSEFA ORTIZ DE DOMINGUEZ,LÉNTICO (HUMEDAL),PRESA,26.43419,-108.70803
OCPNO4533,PRESA JOSEFA ORTIZ DE DOMINGUEZ 2,RÍO FUERTE 2,,,PACÍFICO NORTE,SINALOA,EL FUERTE,PRESA JOSEFA ORTIZ DE DOMINGUEZ,LÉNTICO (HUMEDAL),PRESA,26.46003,-108.70685
OCPNO4534,PRESA JOSEFA ORTIZ DE DOMINGUEZ 4,RÍO FUERTE 2,,,PACÍFICO NORTE,SINALOA,EL FUERTE,PRESA JOSEFA ORTIZ DE DOMINGUEZ,LÉNTICO (HUMEDAL),PRESA,26.46285,-108.68713
OCPNO4535,PRESA JOSEFA ORTIZ DE DOMINGUEZ 5,RÍO FUERTE 2,,,PACÍFICO NORTE,SINALOA,EL FUERTE,PRESA JOSEFA ORTIZ DE DOMINGUEZ,LÉNTICO (HUMEDAL),PRESA,26.45624,-108.67665
OCPNO4536,PUENTE BAROTEN (EL FUERTE),RÍO FUERTE 2,,,PACÍFICO NORTE,SINALOA,EL FUERTE,RIO FUERTE,LÓTICO (HUMEDAL),RÍO,26.39287,-108.65543
OCPNO4537,RIO FUERTE 3,RÍO FUERTE 2,,,PACÍFICO NORTE,SINALOA,EL FUERTE,RIO FUERTE,LÓTICO (HUMEDAL),RÍO,26.42439,-108.62204
OCPNO4538,RIO FUERTE 4,RÍO FUERTE 2,,,PACÍFICO NORTE,SINALOA,EL FUERTE,RIO FUERTE,LÓTICO (HUMEDAL),RÍO,26.43445,-108.62314
OCPNO4539,PRESA MIGUEL HIDALGO Y COSTILLA 5,RÍO FUERTE 2,,,PACÍFICO NORTE,SINALOA,EL FUERTE,PRESA MIGUEL HIDALGO Y COSTILLA,LÉNTICO (HUMEDAL),PRESA,26.54078,-108.54667
OCPNO4540,PRESA MIGUEL HIDALGO Y COSTILLA 3,RÍO FUERTE 2,,,PACÍFICO NORTE,SINALOA,EL FUERTE,PRESA MIGUEL HIDALGO Y COSTILLA,LÉNTICO (HUMEDAL),PRESA,26.55989,-108.56567
OCPNO4541,PRESA MIGUEL HIDALGO Y COSTILLA 1,RÍO FUERTE 2,,,PACÍFICO NORTE,SINALOA,EL FUERTE,PRESA MIGUEL HIDALGO Y COSTILLA,LÉNTICO (HUMEDAL),PRESA,26.54325,-108.5768
OCPNO4542,PRESA MIGUEL HIDALGO Y COSTILLA 4,RÍO FUERTE 2,,,PACÍFICO NORTE,SINALOA,CHOIX,PRESA MIGUEL HIDALGO Y COSTILLA,LÉNTICO (HUMEDAL),PRESA,26.57691,-108.54863
OCPNO4543,PRESA LUIS DONALDO COLOSIO 2,RÍO FUERTE 1,,,PACÍFICO NORTE,SINALOA,CHOIX,PRESA LUIS DONALDO COLOSIO,LÉNTICO,PRESA,26.8453,-108.36723
OCPNO4544,PRESA LUIS DONALDO COLOSIO 3,RÍO FUERTE 1,,,PACÍFICO NORTE,SINALOA,CHOIX,PRESA LUIS DONALDO COLOSIO,LÉNTICO (HUMEDAL),PRESA,26.89038,-108.38062
OCPNO4545,PRESA LUIS DONALDO COLOSIO 4,RÍO FUERTE 1,,,PACÍFICO NORTE,SINALOA,CHOIX,PRESA LUIS DONALDO COLOSIO,LÉNTICO (HUMEDAL),PRESA,26.91922,-108.3674
OCPNO4547,SISTEMA LAGUNAR AGIABAMPO 3,GRUPO DE CORRIENTES AGIABAMPO,,,PACÍFICO NORTE,SINALOA,AHOME,SISTEMA LAGUNAR AGIABAMPO,COSTERO (HUMEDAL),LAGUNA,26.27968,-109.13863
OCPNO4548,SISTEMA LAGUNAR AGIABAMPO 2,GRUPO DE CORRIENTES AGIABAMPO,,,PACÍFICO NORTE,SINALOA,AHOME,SISTEMA LAGUNAR AGIABAMPO,COSTERO (HUMEDAL),LAGUNA,26.27107,-109.09144
OCPNO4549,SISTEMA LAGUNAR AGIABAMPO 1,GRUPO DE CORRIENTES AGIABAMPO,,,PACÍFICO NORTE,SINALOA,AHOME,SISTEMA LAGUNAR AGIABAMPO,COSTERO (HUMEDAL),LAGUNA,26.21159,-109.10863
OCPNO4550,HIGUERA DE ZARAGOZA,RÍO FUERTE 2,,,PACÍFICO NORTE,SINALOA,AHOME,RIO FUERTE,LÓTICO (HUMEDAL),RÍO,25.94404,-109.26871
OCPNO4551,POZO SAN JOSE DE AHOME,,2501,RIO FUERTE,PACÍFICO NORTE,SINALOA,AHOME,ACUÍFERO RIO FUERTE,SUBTERRÁNEO,POZO,25.93188,-109.2598
OCPNO4551M1,POZO 12 LAS QUINTAS,,2501,RIO FUERTE,PACÍFICO NORTE,SINALOA,AHOME,ACUÍFERO RIO FUERTE,SUBTERRÁNEO,POZO,25.91714,-109.20195
OCPNO4552W1,RH10-4 SINALOA,RÍO FUERTE 2,,,PACÍFICO NORTE,SINALOA,AHOME,RIO FUERTE,LÓTICO,RÍO,25.85551,-109.34818
OCPNO4553,BAHÍA EL COLORADO,RÍO FUERTE 2,,,PACÍFICO NORTE,SINALOA,AHOME,BAHÍA EL COLORADO,COSTERO (HUMEDAL),BAHIA,25.76128,-109.35629
OCPNO4554,BAHIA DE SANTA M TOPOLOBAMPO-OHUIRA 3,RÍO FUERTE 2,,,PACÍFICO NORTE,SINALOA,AHOME,LAGUNAS DE SANTA MARIA TOPOLOBAMPO-OHUIRA,COSTERO (HUMEDAL),LAGUNA,25.76922,-109.30555
OCPNO4555W1,DESEMBOCADURA RIO SINALOA,RÍO SINALOA 2,,,PACÍFICO NORTE,SINALOA,GUASAVE,RIO SINALOA,LÓTICO - COSTERO,ESTUARIO,25.28194,-108.49509
OCPNO4556,LAGUNA PLAYA COLORADA-SANTA MARIA LA REFORMA 2,GRUPO DE CORRIENTES REFORMA,,,PACÍFICO NORTE,SINALOA,ANGOSTURA,LAGUNA PLAYA COLORADA-SANTA MARIA LA REFORMA,COSTERO,LAGUNA,25.07516,-108.05888
OCPNO4556M1,LAGUNA PLAYA COLORADA-SANTA MARIA LA REFORMA 2,GRUPO DE CORRIENTES HUYAQUI,,,PACÍFICO NORTE,SINALOA,ANGOSTURA,LAGUNA PLAYA COLORADA-SANTA MARIA LA REFORMA,COSTERO (HUMEDAL),LAGUNA,25.06226,-108.09045
OCPNO4557,LAGUNA PLAYA COLORADA-SANTA MARIA LA REFORMA 1,RÍO PERICOS 2,,,PACÍFICO NORTE,SINALOA,NAVOLATO,LAGUNA PLAYA COLORADA-SANTA MARIA LA REFORMA,COSTERO (HUMEDAL),LAGUNA,24.80133,-108.02193
OCPNO4558,PUENTE EL GUAMUCHILITO,RÍO CULIACÁN,,,PACÍFICO NORTE,SINALOA,NAVOLATO,DREN MARGEN DERECHA,LÓTICO,DREN,24.83999,-107.72364
OCPNO4559,PUENTE LA PALMA,RÍO CULIACÁN,,,PACÍFICO NORTE,SINALOA,NAVOLATO,DREN MARGEN DERECHA,LÓTICO,DREN,24.83433,-107.65428
OCPNO4560,PRESA DIQUE LA MARIQUITA 4,RÍO PERICOS 2,,,PACÍFICO NORTE,SINALOA,MOCORITO,PRESA DIQUE LA MARIQUITA,LÉNTICO (HUMEDAL),PRESA,25.00748,-107.62775
OCPNO4561,PRESA DIQUE LA MARIQUITA 3,RÍO PERICOS 2,,,PACÍFICO NORTE,SINALOA,MOCORITO,PRESA DIQUE LA MARIQUITA,LÉNTICO (HUMEDAL),PRESA,25.02358,-107.63698
OCPNO4562,PRESA DIQUE LA MARIQUITA 5,RÍO PERICOS 2,,,PACÍFICO NORTE,SINALOA,MOCORITO,PRESA DIQUE LA MARIQUITA,LÉNTICO (HUMEDAL),PRESA,25.02704,-107.62794
OCPNO4563,PRESA DIQUE LA MARIQUITA 2,RÍO PERICOS 2,,,PACÍFICO NORTE,SINALOA,MOCORITO,DIQUE LA MARIQUITA,LÉNTICO (HUMEDAL),PRESA,25.03546,-107.64051
OCPNO4564,BAHIA DE ALTATA2 ISA10B,GRUPO DE CORRIENTES PABELLONES,,,PACÍFICO NORTE,SINALOA,CULIACÁN,BAHIA DE ALTATA,COSTERO (HUMEDAL),BAHIA,24.37924,-107.55543
OCPNO4565,BAHÍA ENSENADA PABELLONES 1,GRUPO DE CORRIENTES PABELLONES,,,PACÍFICO NORTE,SINALOA,CULIACÁN,BAHÍA ENSENADA PABELLONES,COSTERO (HUMEDAL),BAHIA,24.37731,-107.5288
OCPNO4566,BAHIA DE ALTATA3 ISA10B,GRUPO DE CORRIENTES PABELLONES,,,PACÍFICO NORTE,SINALOA,CULIACÁN,BAHIA DE ALTATA,COSTERO (HUMEDAL),BAHIA,24.37296,-107.54128
OCPNO4567,RIO SAN LORENZO 4,RÍO SAN LORENZO 2,,,PACÍFICO NORTE,SINALOA,CULIACÁN,RIO SAN LORENZO,LÓTICO - COSTERO (HUMEDAL),RÍO,24.26821,-107.4015
OCPNO4568,DESEMBOCADURA RIO SAN LORENZO,RÍO SAN LORENZO 2,,,PACÍFICO NORTE,SINALOA,CULIACÁN,RÍO SAN LORENZO,LÓTICO - COSTERO (HUMEDAL),ESTUARIO,24.25007,-107.4132
OCPNO4569,EL DORADO,RÍO SAN LORENZO 2,,,PACÍFICO NORTE,SINALOA,CULIACÁN,RIO SAN LORENZO,LÓTICO (HUMEDAL),RÍO,24.31147,-107.35151
OCPNO4570,RH10-3 SINALOA,RÍO SAN LORENZO 2,,,PACÍFICO NORTE,SINALOA,CULIACÁN,RIO SAN LORENZO,LÓTICO,RÍO,24.31101,-107.35225
OCPNO4570M1,RH10-3 SINALOA,RÍO SAN LORENZO 2,,,PACÍFICO NORTE,SINALOA,CULIACÁN,RIO SAN LORENZO,LÓTICO (HUMEDAL),RÍO,24.29916,-107.36681
OCPNO4571,"INGENIO EL DORADO, S.A. DE C.V. SINALOA (AGUAS ARRIBA)",RÍO SAN LORENZO 2,,,PACÍFICO NORTE,SINALOA,CULIACÁN,DREN AGRICOLA 0+500,LÓTICO,DESCARGA,24.32001,-107.36934
OCPNO4572,"EL DORADO, LA CRUZ DE NAVITO",,2505,RIO SAN LORENZO,PACÍFICO NORTE,SINALOA,CULIACÁN,ACUÍFERO RIO SAN LORENZO,SUBTERRÁNEO,POZO,24.34763,-107.32762
OCPNO4573,RIO SAN LORENZO 5,RÍO SAN LORENZO 2,,,PACÍFICO NORTE,SINALOA,CULIACÁN,RIO SAN LORENZO,LÓTICO (HUMEDAL),RÍO,24.35027,-107.3195
OCPNO4574,RIO SAN LORENZO 6,RÍO SAN LORENZO 2,,,PACÍFICO NORTE,SINALOA,CULIACÁN,RIO SAN LORENZO,LÓTICO (HUMEDAL),RÍO,24.40696,-107.22522
OCPNO4575,QUILA,,2505,RIO SAN LORENZO,PACÍFICO NORTE,SINALOA,CULIACÁN,ACUÍFERO RIO SAN LORENZO,SUBTERRÁNEO,POZO,24.4151,-107.21882
OCPNO4576,PUENTE SAN LORENZO (PUENTE CARRETERA INTERNACIONAL),RÍO SAN LORENZO 2,,,PACÍFICO NORTE,SINALOA,CULIACÁN,RIO SAN LORENZO,LÓTICO,RÍO,24.44614,-107.09562
OCPNO4577,TABALA,,2505,RIO SAN LORENZO,PACÍFICO NORTE,SINALOA,CULIACÁN,ACUÍFERO RIO SAN LORENZO,SUBTERRÁNEO,POZO,24.44365,-107.09189
OCPNO4578,RIO SAN LORENZO 7,RÍO SAN LORENZO 2,,,PACÍFICO NORTE,SINALOA,COSALÁ,RIO SAN LORENZO,LÓTICO,RÍO,24.44003,-107.00619
OCPNO4579,RIO SAN LORENZO 8,RÍO SAN LORENZO 2,,,PACÍFICO NORTE,SINALOA,COSALÁ,RIO SAN LORENZO,LÓTICO,RÍO,24.48826,-106.95173
OCPNO4580,PRESA JOSE LOPEZ PORTILLO 1,RÍO SAN LORENZO 1,,,PACÍFICO NORTE,SINALOA,COSALÁ,PRESA JOSE LOPEZ PORTILLO,LÉNTICO (HUMEDAL),PRESA,24.57212,-106.80581
OCPNO4581,PRESA JOSE LOPEZ PORTILLO 2,RÍO SAN LORENZO 1,,,PACÍFICO NORTE,SINALOA,COSALÁ,PRESA JOSE LOPEZ PORTILLO,LÉNTICO (HUMEDAL),PRESA,24.58537,-106.79475
OCPNO4582,PRESA JOSE LOPEZ PORTILLO 3,RÍO SAN LORENZO 1,,,PACÍFICO NORTE,SINALOA,COSALÁ,PRESA JOSE LOPEZ PORTILLO,LÉNTICO (HUMEDAL),PRESA,24.60864,-106.76237
OCPNO4583,PRESA JOSE LOPEZ PORTILLO 4,RÍO SAN LORENZO 1,,,PACÍFICO NORTE,SINALOA,COSALÁ,PRESA JOSE LOPEZ PORTILLO,LÉNTICO (HUMEDAL),PRESA,24.59264,-106.74781
OCPNO4584,PRESA JOSE LOPEZ PORTILLO 5,RÍO SAN LORENZO 1,,,PACÍFICO NORTE,SINALOA,COSALÁ,PRESA JOSE LOPEZ PORTILLO,LÉNTICO (HUMEDAL),PRESA,24.62845,-106.71886
OCPNO4585,RIO ELOTA 7,RÍO HABITAS,,,PACÍFICO NORTE,SINALOA,CULIACÁN,RIO ELOTA,LÓTICO,RÍO,24.39827,-106.60582
OCPNO4586,RIO ELOTA 6,RÍO HABITAS,,,PACÍFICO NORTE,SINALOA,COSALÁ,RIO ELOTA,LÓTICO,RÍO,24.33562,-106.6459
OCPNO4587,RIO ELOTA SALIDA DE PRESA EL SALTO,RÍO ELOTA,,,PACÍFICO NORTE,SINALOA,SAN IGNACIO,RIO ELOTA,LÓTICO,CANAL,24.11846,-106.68166
OCPNO4588,PRESA AURELIO BENASSINI VIZCAINO 4,RÍO HABITAS,,,PACÍFICO NORTE,SINALOA,SAN IGNACIO,PRESA AURELIO BENASSINI VIZCAINO,LÉNTICO (HUMEDAL),PRESA,24.1363,-106.65058
OCPNO4589,PRESA AURELIO BENASSINI VIZCAINO 3,RÍO HABITAS,,,PACÍFICO NORTE,SINALOA,ELOTA,PRESA AURELIO BENASSINI VIZCAINO,LÉNTICO (HUMEDAL),PRESA,24.14662,-106.69051
OCPNO4590,PRESA AURELIO BENASSINI VIZCAINO 2,RÍO HABITAS,,,PACÍFICO NORTE,SINALOA,ELOTA,PRESA AURELIO BENASSINI VIZCAINO,LÉNTICO (HUMEDAL),PRESA,24.13018,-106.6851
OCPNO4591,PRESA AURELIO BENASSINI VIZCAINO 1,RÍO HABITAS,,,PACÍFICO NORTE,SINALOA,ELOTA,PRESA AURELIO BENASSINI VIZCAINO,LÉNTICO (HUMEDAL),PRESA,24.13359,-106.7261
OCPNO4592,RIO ELOTA 3,RÍO ELOTA,,,PACÍFICO NORTE,SINALOA,SAN IGNACIO,RIO ELOTA,LÓTICO (HUMEDAL),ARROYO,23.96,-106.69908
OCPNO4593,PUENTE INTERNACIONAL. (PUENTE ELOTA),RÍO ELOTA,,,PACÍFICO NORTE,SINALOA,ELOTA,RIO ELOTA,LÓTICO (HUMEDAL),RÍO,23.95843,-106.71391
OCPNO4594,RIO ELOTA 2,RÍO ELOTA,,,PACÍFICO NORTE,SINALOA,ELOTA,RIO ELOTA,LÓTICO (HUMEDAL),RÍO,23.93017,-106.77063
OCPNO4595,EL LIMONCITO,,2506,RIO ELOTA,PACÍFICO NORTE,SINALOA,ELOTA,ACUÍFERO RIO ELOTA,SUBTERRÁNEO,POZO,23.93004,-106.77659
OCPNO4596,EL ROBLE,,2506,RIO ELOTA,PACÍFICO NORTE,SINALOA,ELOTA,ACUÍFERO RIO ELOTA,SUBTERRÁNEO,POZO,23.92107,-106.81741
OCPNO4597,RIO ELOTA 1,RÍO ELOTA,,,PACÍFICO NORTE,SINALOA,ELOTA,RIO ELOTA,LÓTICO,RÍO,23.90708,-106.89177
OCPNO4598,LA CRUZ,RÍO ELOTA,,,PACÍFICO NORTE,SINALOA,ELOTA,RIO ELOTA,LÓTICO (HUMEDAL),RÍO,23.8989,-106.91743
OCPNO4599,EJIDO LA CRUZ,,2506,RIO ELOTA,PACÍFICO NORTE,SINALOA,ELOTA,ACUÍFERO RIO ELOTA,SUBTERRÁNEO,POZO,23.89952,-106.92464
OCPNO4600,DESEMBOCADURA RIO ELOTA,RÍO ELOTA,,,PACÍFICO NORTE,SINALOA,ELOTA,TRANSICION RIO - MAR,LÓTICO - COSTERO (HUMEDAL),ESTERO,23.87909,-106.93054
OCPNO4601W1,SISTEMA LAGUNAR CEUTA 1,GRUPO DE CORRIENTES TEMPEHUAYA,,,PACÍFICO NORTE,SINALOA,ELOTA,CUERPO DE AGUA DEL HUMEDAL,LÉNTICO - COSTERO (HUMEDAL),LAGUNA,23.9312,-106.97966
OCPNO4602W1,SISTEMA LAGUNAR CEUTA 2,GRUPO DE CORRIENTES TEMPEHUAYA,,,PACÍFICO NORTE,SINALOA,ELOTA,CUERPO DE AGUA DEL HUMEDAL,LÉNTICO - COSTERO (HUMEDAL),LAGUNA,23.99353,-107.05099
OCPNO4603,BOCA-BC,GRUPO DE CORRIENTES TEMPEHUAYA,,,PACÍFICO NORTE,SINALOA,CULIACÁN,BAHIA DE CEUTA,COSTERO (HUMEDAL),BAHIA,24.10416,-107.19685
OCPNO4604,RIO PIAXTLA 1,RÍO PIAXTLA 2,,,PACÍFICO NORTE,SINALOA,SAN IGNACIO,RIO PIAXTLA,LÓTICO (HUMEDAL),RÍO,23.72559,-106.78793
OCPNO4605,DIMAS,RÍO PIAXTLA 2,,,PACÍFICO NORTE,SINALOA,SAN IGNACIO,RIO PIAXTLA,LÓTICO (HUMEDAL),RÍO,23.73387,-106.77763
OCPNO4606,EJIDO DIMAS,,2507,RIO PIAXTLA,PACÍFICO NORTE,SINALOA,SAN IGNACIO,ACUÍFERO RIO PIAXTLA,SUBTERRÁNEO,POZO,23.73324,-106.76889
OCPNO4607,DESEMBOCADURA RIO PIAXTLA,RÍO PIAXTLA 2,,,PACÍFICO NORTE,SINALOA,SAN IGNACIO,TRANSICION RIO - MAR,LÓTICO - COSTERO (HUMEDAL),ESTUARIO,23.70954,-106.80186
OCPNO4608,PIAXTLA DE ABAJO,,2507,RIO PIAXTLA,PACÍFICO NORTE,SINALOA,SAN IGNACIO,ACUÍFERO RIO PIAXTLA,SUBTERRÁNEO,POZO,23.83393,-106.65798
OCPNO4609,RIO PIAXTLA CARRETERA INTERNACIONAL,RÍO PIAXTLA 2,,,PACÍFICO NORTE,SINALOA,SAN IGNACIO,RIO PIAXTLA,LÓTICO,RÍO,23.88507,-106.62
OCPNO4610,RIO PIAXTLA 3,RÍO PIAXTLA 2,,,PACÍFICO NORTE,SINALOA,SAN IGNACIO,RIO PIAXTLA,LÓTICO,RÍO,23.94011,-106.53532
OCPNO4611,RIO PIAXTLA 2,RÍO PIAXTLA 2,,,PACÍFICO NORTE,SINALOA,SAN IGNACIO,RIO PIAXTLA,LÓTICO (HUMEDAL),RÍO,23.9341,-106.4362
OCPNO4612,SAN IGNACIO,,2507,RIO PIAXTLA,PACÍFICO NORTE,SINALOA,SAN IGNACIO,ACUÍFERO RIO PIAXTLA,SUBTERRÁNEO,POZO,23.94078,-106.41753
OCPNO4613,RIO PIAXTLA 4,RÍO PIAXTLA 2,,,PACÍFICO NORTE,SINALOA,SAN IGNACIO,RIO PIAXTLA,LÓTICO (HUMEDAL),RÍO,23.94448,-106.4137
OCPNO4614,PRESA PICACHOS,RÍO PRESIDIO 1,,,PACÍFICO NORTE,SINALOA,CONCORDIA,PRESA,LÉNTICO (HUMEDAL),PRESA,23.5165,-106.1955
OCPNO4615,RIO PRESIDIO 5,RÍO PRESIDIO 1,,,PACÍFICO NORTE,SINALOA,CONCORDIA,RIO PRESIDIO,LÓTICO (HUMEDAL),RÍO,23.47734,-106.20435
OCPNO4616,RIO PRESIDIO 4,RÍO PRESIDIO 1,,,PACÍFICO NORTE,SINALOA,CONCORDIA,RIO PRESIDIO,LÓTICO,RÍO,23.40973,-106.2065
OCPNO4617,RIO PRESIDIO 3,RÍO PRESIDIO 2,,,PACÍFICO NORTE,SINALOA,MAZATLÁN,RIO PRESIDIO,LÓTICO (HUMEDAL),RÍO,23.34692,-106.24526
OCPNO4618,POZO CNA 82,,2509,RIO PRESIDIO,PACÍFICO NORTE,SINALOA,MAZATLÁN,ACUÍFERO RIO PRESIDIO,SUBTERRÁNEO,POZO,23.32884,-106.23798
OCPNO4619,WALAMO (CNA-013),,2509,RIO PRESIDIO,PACÍFICO NORTE,SINALOA,MAZATLÁN,ACUÍFERO RIO PRESIDIO,SUBTERRÁNEO,POZO,23.14434,-106.24055
OCPNO4620,RIO PRESIDIO 2,RÍO PRESIDIO 2,,,PACÍFICO NORTE,SINALOA,MAZATLÁN,RIO PRESIDIO,LÓTICO,RÍO,23.25677,-106.23394
OCPNO4621,POZO VILLA UNIÓN,,2509,RIO PRESIDIO,PACÍFICO NORTE,SINALOA,MAZATLÁN,ACUÍFERO RIO PRESIDIO,SUBTERRÁNEO,POZO,23.19806,-106.22059
OCPNO4622,RIO PRESIDIO 1,RÍO PRESIDIO 2,,,PACÍFICO NORTE,SINALOA,MAZATLÁN,RIO PRESIDIO,LÓTICO,RÍO,23.18233,-106.23032
OCPNO4623,PUENTE VILLA UNION,RÍO PRESIDIO 2,,,PACÍFICO NORTE,SINALOA,MAZATLÁN,RIO PRESIDIO,LÓTICO,RÍO,23.19095,-106.22384
OCPNO4624,EL WALAMO,RÍO PRESIDIO 2,,,PACÍFICO NORTE,SINALOA,MAZATLÁN,RIO PRESIDIO,LÓTICO (HUMEDAL),RÍO,23.14056,-106.25272
OCPNO4625,POZO CNA 03,,2509,RIO PRESIDIO,PACÍFICO NORTE,SINALOA,MAZATLÁN,ACUÍFERO RIO PRESIDIO,SUBTERRÁNEO,POZO,23.12525,-106.2584
OCPNO4626,LAGUNA HUIZACHE-CAIMANERO 3,GRUPO DE CORRIENTES HUIZACHE,,,PACÍFICO NORTE,SINALOA,MAZATLÁN,LAGUNA HUIZACHE-CAIMANERO,COSTERO (HUMEDAL),LAGUNA,23.08092,-106.27328
OCPNO4627,DESEMBOCADURA RIO PRESIDIO,GRUPO DE CORRIENTES HUIZACHE,,,PACÍFICO NORTE,SINALOA,MAZATLÁN,TRANSICION RIO - MAR,LÓTICO - COSTERO (HUMEDAL),ESTERO,23.09396,-106.29271
OCPNO4628W1,LAGUNA HUIZACHE 5,GRUPO DE CORRIENTES HUIZACHE,,,PACÍFICO NORTE,SINALOA,MAZATLÁN,LAGUNA HUIZACHE,LÉNTICO - COSTERO,LAGUNA,23.08386,-106.22345
OCPNO4629W1,LAGUNA HUIZACHE 6,GRUPO DE CORRIENTES HUIZACHE,,,PACÍFICO NORTE,SINALOA,ROSARIO,LAGUNA HUIZACHE,LÉNTICO - COSTERO (HUMEDAL),LAGUNA,23.07756,-106.22041
OCPNO4630,LAGUNA HUIZACHE-CAIMANERO 2,GRUPO DE CORRIENTES HUIZACHE,,,PACÍFICO NORTE,SINALOA,ROSARIO,LAGUNA HUIZACHE-CAIMANERO,COSTERO (HUMEDAL),LAGUNA,23.06021,-106.22343
OCPNO4631W1,LAGUNA HUIZACHE 4,GRUPO DE CORRIENTES HUIZACHE,,,PACÍFICO NORTE,SINALOA,ROSARIO,LAGUNA HUIZACHE,LÉNTICO - COSTERO (HUMEDAL),LAGUNA,23.00431,-106.13561
OCPNO4632,LAGUNA HUIZACHE 3,GRUPO DE CORRIENTES HUIZACHE,,,PACÍFICO NORTE,SINALOA,ROSARIO,LAGUNA HUIZACHE,COSTERO (HUMEDAL),LAGUNA,22.99297,-106.08501
OCPNO4633,LAGUNA HUIZACHE 2,GRUPO DE CORRIENTES HUIZACHE,,,PACÍFICO NORTE,SINALOA,ROSARIO,LAGUNA HUIZACHE,COSTERO (HUMEDAL),LAGUNA,22.98663,-106.05202
OCPNO4634,LAGUNA HUIZACHE 1,GRUPO DE CORRIENTES HUIZACHE,,,PACÍFICO NORTE,SINALOA,ROSARIO,LAGUNA HUIZACHE,COSTERO (HUMEDAL),LAGUNA,22.90899,-106.07588
OCPNO4634M1,LAGUNA HUIZACHE 1,Grupo de Corrientes Huizache,,,PACÍFICO NORTE,SINALOA,ROSARIO,LAGUNA HUIZACHE,COSTERO (HUMEDAL),LAGUNA,22.90504,-106.07928
OCPNO4635,BOCA SISTEMA LAGUNAR HUIZACHE-CAIMANERO,RÍO BALUARTE 2,,,PACÍFICO NORTE,SINALOA,ROSARIO,SISTEMA LAGUNAR HUIZACHE - CAIMANERO,COSTERO (HUMEDAL),LAGUNA,22.88119,-106.06549
OCPNO4636,LAGUNA HUIZACHE-CAIMANERO 1,RÍO BALUARTE 2,,,PACÍFICO NORTE,SINALOA,ROSARIO,LAGUNA HUIZACHE-CAIMANERO,COSTERO (HUMEDAL),LAGUNA,22.8546,-106.02782
OCPNO4637,RIO BALUARTE 1,RÍO BALUARTE 2,,,PACÍFICO NORTE,SINALOA,ROSARIO,RIO BALUARTE,LÓTICO - COSTERO,ESTUARIO,22.83919,-106.03631
OCPNO4637M1,RIO BALUARTE 1,RÍO BALUARTE 2,,,PACÍFICO NORTE,SINALOA,ROSARIO,RIO BALUARTE,LÓTICO - COSTERO (HUMEDAL),ESTUARIO,22.84368,-106.00972
OCPNO4638,DESEMBOCADURA RIO BALUARTE,RÍO BALUARTE 2,,,PACÍFICO NORTE,SINALOA,ROSARIO,TRANSICION RIO - MAR,LÓTICO - COSTERO (HUMEDAL),ESTUARIO,22.83593,-106.03548
OCPNO4639W1,MARISMAS NACIONALES 12,GRUPO DE CORRIENTES MARISMAS NACIONALES,,,PACÍFICO NORTE,SINALOA,ROSARIO,CUERPO DE AGUA DEL HUMEDAL,LÉNTICO - COSTERO (HUMEDAL),MARISMA,22.82893,-105.9792
OCPNO4640,CHAMETLA,RÍO BALUARTE 2,,,PACÍFICO NORTE,SINALOA,ROSARIO,RIO BALUARTE,LÓTICO (HUMEDAL),RÍO,22.88024,-105.96335
OCPNO4641,MARISMAS NACIONALES 11,GRUPO DE CORRIENTES MARISMAS NACIONALES,,,PACÍFICO NORTE,SINALOA,ESCUINAPA,CUERPO DE AGUA DEL HUMEDAL,COSTERO (HUMEDAL),MARISMA,22.81926,-105.89326
OCPNO4642,MARISMAS NACIONALES 10,GRUPO DE CORRIENTES MARISMAS NACIONALES,,,PACÍFICO NORTE,SINALOA,ESCUINAPA,CUERPO DE AGUA DEL HUMEDAL,COSTERO (HUMEDAL),MARISMA,22.78511,-105.83021
OCPNO4643,MARISMAS NACIONALES 9,GRUPO DE CORRIENTES MARISMAS NACIONALES,,,PACÍFICO NORTE,SINALOA,ESCUINAPA,CUERPO DE AGUA DEL HUMEDAL,COSTERO (HUMEDAL),MARISMA,22.75372,-105.76131
OCPNO4644,LAGUNA AGUA GRANDE 8,GRUPO DE CORRIENTES MARISMAS NACIONALES,,,PACÍFICO NORTE,SINALOA,ESCUINAPA,LAGUNA AGUA GRANDE,COSTERO (HUMEDAL),LAGUNA,22.73527,-105.70441
OCPNO4645,LAGUNA AGUA GRANDE 6,GRUPO DE CORRIENTES MARISMAS NACIONALES,,,PACÍFICO NORTE,SINALOA,ESCUINAPA,LAGUNA AGUA GRANDE,COSTERO (HUMEDAL),LAGUNA,22.72438,-105.70355
OCPNO4646,LAGUNA AGUA GRANDE 3,GRUPO DE CORRIENTES MARISMAS NACIONALES,,,PACÍFICO NORTE,SINALOA,ESCUINAPA,LAGUNA AGUA GRANDE,COSTERO (HUMEDAL),LAGUNA,22.71033,-105.73499
OCPNO4647,MARISMAS NACIONALES 8,GRUPO DE CORRIENTES MARISMAS NACIONALES,,,PACÍFICO NORTE,SINALOA,ESCUINAPA,CUERPO DE AGUA DEL HUMEDAL,COSTERO (HUMEDAL),MARISMA,22.68575,-105.74268
OCPNO4648,LAGUNA AGUA GRANDE 1,GRUPO DE CORRIENTES MARISMAS NACIONALES,,,PACÍFICO NORTE,SINALOA,ESCUINAPA,LAGUNA AGUA GRANDE,COSTERO (HUMEDAL),LAGUNA,22.6605,-105.7132
OCPNO4649,LAGUNA AGUA GRANDE 7,GRUPO DE CORRIENTES MARISMAS NACIONALES,,,PACÍFICO NORTE,SINALOA,ESCUINAPA,LAGUNA AGUA GRANDE,COSTERO (HUMEDAL),LAGUNA,22.70278,-105.70295
OCPNO4650,MARISMAS NACIONALES 7,GRUPO DE CORRIENTES MARISMAS NACIONALES,,,PACÍFICO NORTE,SINALOA,ESCUINAPA,CUERPO DE AGUA DEL HUMEDAL,COSTERO (HUMEDAL),MARISMA,22.582472,-105.683928
OCPNO4651,AGUAS DEBAJO DE LA DESCARGA DE LA CD. EL ROSARIO,RÍO BALUARTE 2,,,PACÍFICO NORTE,SINALOA,ROSARIO,RIO BALUARTE,LÓTICO (HUMEDAL),RÍO,22.97227,-105.86382
OCPNO4652,BALUARTE (PUENTE EL ROSARIO),RÍO BALUARTE 2,,,PACÍFICO NORTE,SINALOA,ROSARIO,RIO BALUARTE,LÓTICO (HUMEDAL),RÍO,22.99768,-105.84722
OCPNO4653,RIO BALUARTE 4,RÍO BALUARTE 1,,,PACÍFICO NORTE,SINALOA,ROSARIO,RIO BALUARTE,LÓTICO,RÍO,23.06213,-105.84316
OCPNO4654,RIO BALUARTE 5,RÍO BALUARTE 1,,,PACÍFICO NORTE,SINALOA,ROSARIO,RIO BALUARTE,LÓTICO,RÍO,23.12754,-105.87434
OCPNO4655,MAZATLAN1,GRUPO DE CORRIENTES MAZATLAN,,,PACÍFICO NORTE,SINALOA,MAZATLÁN,OCEANO PACIFICO (ESTERO LAS SIRENAS),COSTERO (HUMEDAL),OCÉANO-MAR,23.17577,-106.34296
OCPNO4656,MAZATLAN2,GRUPO DE CORRIENTES MAZATLAN,,,PACÍFICO NORTE,SINALOA,MAZATLÁN,OCEANO PACIFICO,COSTERO (HUMEDAL),OCÉANO-MAR,23.20437,-106.37366
OCPNO4657,ENTRADA ESTERO LA SIRENA,GRUPO DE CORRIENTES MAZATLAN,,,PACÍFICO NORTE,SINALOA,MAZATLÁN,OCEANO PACIFICO (ESTERO LAS SIRENAS),COSTERO (HUMEDAL),ESTERO,23.21239,-106.3815
OCPNO4658,"MAZ INDUSTRIAL, S.A. DE C.V. (FRENTE A LA DESCARGA)",GRUPO DE CORRIENTES MAZATLAN,,,PACÍFICO NORTE,SINALOA,MAZATLÁN,ESTERO DE URIAS,COSTERO,DESCARGA,23.21271,-106.37751
OCPNO4659,"MAZ INDUSTRIAL, S.A. DE C.V. (AGUAS ABAJO)",GRUPO DE CORRIENTES MAZATLAN,,,PACÍFICO NORTE,SINALOA,MAZATLÁN,OCEANO PACIFICO (ESTERO LAS SIRENAS),COSTERO (HUMEDAL),DESCARGA,23.21181,-106.37619
OCPNO4660,"MAZ INDUSTRIAL, S.A. DE C.V. (FRENTE AL MUELLE)",GRUPO DE CORRIENTES MAZATLAN,,,PACÍFICO NORTE,SINALOA,MAZATLÁN,OCEANO PACIFICO (ESTERO LAS SIRENAS),COSTERO (HUMEDAL),DESCARGA,23.21281,-106.37955
OCPNO4661,ESTERO DE URIAS-PARQUE BONFIL,GRUPO DE CORRIENTES MAZATLAN,,,PACÍFICO NORTE,SINALOA,MAZATLÁN,ESTERO URIAS/B. MAZATLAN,COSTERO (HUMEDAL),ESTERO,23.21197,-106.39478
OCPNO4662,ESTERO EL INFIERNILLO-PUENTE JUAREZ,GRUPO DE CORRIENTES MAZATLAN,,,PACÍFICO NORTE,SINALOA,MAZATLÁN,ESTERO EL INFIERNILLO/B. MAZATLAN,COSTERO,ESTERO,23.21257,-106.40622
OCPNO4663,PUERTO DE MAZATLAN DOS,GRUPO DE CORRIENTES MAZATLAN,,,PACÍFICO NORTE,SINALOA,MAZATLÁN,OCEANO PACIFICO,COSTERO (HUMEDAL),OCÉANO-MAR,23.1999,-106.40986
OCPNO4664,EL CRESTON AGUAS ARRIBA,GRUPO DE CORRIENTES MAZATLAN,,,PACÍFICO NORTE,SINALOA,MAZATLÁN,GOLFO DE CALIFORNIA,COSTERO,OCÉANO-MAR,23.18011,-106.43525
OCPNO4665,PUERTO DE MAZATLAN TRES,GRUPO DE CORRIENTES MAZATLAN,,,PACÍFICO NORTE,SINALOA,MAZATLÁN,OCEANO PACIFICO,COSTERO (HUMEDAL),ESTERO,23.20842,-106.39896
OCPNO4666,PUERTO DE MAZATLAN UNO,GRUPO DE CORRIENTES MAZATLAN,,,PACÍFICO NORTE,SINALOA,MAZATLÁN,OCEANO PACIFICO,COSTERO (HUMEDAL),OCÉANO-MAR,23.18532,-106.41615
OCPNO4667,EL VERDE CAMACHO 5,RÍO QUELITE 2,,,PACÍFICO NORTE,SINALOA,MAZATLÁN,PLAYA EL VERDE CAMACHO,COSTERO (HUMEDAL),BAHIA,23.40365,-106.54012
OCPNO4668,PLAYA TORTUGUERA EL VERDE CAMACHO 1,RÍO QUELITE 2,,,PACÍFICO NORTE,SINALOA,MAZATLÁN,PLAYA TORTUGUERA EL VERDE CAMACHO,COSTERO (HUMEDAL),OCÉANO-MAR,23.4531,-106.59576
OCPNO4669,PLAYA TORTUGUERA VERDE CAMACHO 4,RÍO QUELITE 2,,,PACÍFICO NORTE,SINALOA,MAZATLÁN,PLAYA TORTUGUERA EL VERDE CAMACHO,COSTERO (HUMEDAL),BAHIA,23.43313,-106.57177
OCPNO4670,PLAYA TORTUGUERA EL VERDE CAMACHO 2,RÍO QUELITE 2,,,PACÍFICO NORTE,SINALOA,MAZATLÁN,PLAYA TORTUGUERA EL VERDE CAMACHO,COSTERO (HUMEDAL),OCÉANO-MAR,23.42206,-106.55949
OCPNO4671,PLAYA TORTUGUERA EL VERDE CAMACHO 3,RÍO QUELITE 2,,,PACÍFICO NORTE,SINALOA,MAZATLÁN,PLAYA TORTUGUERA EL VERDE CAMACHO,COSTERO (HUMEDAL),BAHIA,23.4598,-106.59649
OCPNO4671M1W1,LAGUNA EL CAMARON,GRUPO DE CORRIENTES MAZATLAN,,,PACÍFICO NORTE,SINALOA,MAZATLÁN,LAGUNA EL CAMARON,LÉNTICO (HUMEDAL),LAGUNA,23.23817,-106.44161
OCPNO4672,PRESA GUSTAVO DIAZ ORDAZ 3,RÍO SINALOA 1,,,PACÍFICO NORTE,SINALOA,SINALOA,PRESA GUSTAVO DIAZ ORDAZ,LÉNTICO (HUMEDAL),PRESA,25.89576,-107.85013
OCPNO4673,PRESA GUSTAVO DIAZ ORDAZ 4,RÍO SINALOA 1,,,PACÍFICO NORTE,SINALOA,SINALOA,PRESA GUSTAVO DIAZ ORDAZ,LÉNTICO (HUMEDAL),PRESA,25.95207,-107.83984
OCPNO4674,PRESA GUSTAVO DIAZ ORDAZ 2,RÍO SINALOA 1,,,PACÍFICO NORTE,SINALOA,SINALOA,PRESA GUSTAVO DIAZ ORDAZ,LÉNTICO (HUMEDAL),PRESA,25.95233,-107.86852
OCPNO4675,PRESA GUSTAVO DIAZ ORDAZ 1,RÍO SINALOA 1,,,PACÍFICO NORTE,SINALOA,SINALOA,PRESA GUSTAVO DIAZ ORDAZ,LÉNTICO (HUMEDAL),PRESA,25.85906,-107.91193
OCPNO4676,RIO SINALOA 2,RÍO SINALOA 2,,,PACÍFICO NORTE,SINALOA,SINALOA,RIO SINALOA,LÓTICO,RÍO,25.92067,-108.08975
OCPNO4677,RIO SINALOA 1,RÍO SINALOA 2,,,PACÍFICO NORTE,SINALOA,SINALOA,RIO SINALOA,LÓTICO,RÍO,25.92051,-108.09723
OCPNO4678,RIO SINALOA 7,RÍO SINALOA 2,,,PACÍFICO NORTE,SINALOA,GUASAVE,RIO SINALOA,LÓTICO,RÍO,25.70899,-108.34111
OCPNO4679,POZO CNA 221,,2502,RIO SINALOA,PACÍFICO NORTE,SINALOA,GUASAVE,ACUÍFERO RIO SINALOA,SUBTERRÁNEO,POZO,25.73292,-108.34293
OCPNO4680,PRESA GUILLERMO BLAKE AGUILAR 2,RÍO SINALOA 2,,,PACÍFICO NORTE,SINALOA,SINALOA,PRESA GUILLERMO BLAKE AGUILAR,LÓTICO,RÍO,26.10146,-108.3248
OCPNO4681,PRESA GUILLERMO BLAKE AGUILAR 1,ARROYO OCORONI,,,PACÍFICO NORTE,SINALOA,SINALOA,PRESA GUILLERMO BLAKE AGUILAR,LÉNTICO (HUMEDAL),PRESA,26.116679,-108.326223
OCPNO4682,PRESA GUILLERMO BLAKE AGUILAR 4,ARROYO OCORONI,,,PACÍFICO NORTE,SINALOA,SINALOA,PRESA GUILLERMO BLAKE AGUILAR,LÉNTICO (HUMEDAL),PRESA,26.149943,-108.303938
OCPNO4683,PRESA GUILLERMO BLAKE AGUILAR 3,ARROYO OCORONI,,,PACÍFICO NORTE,SINALOA,SINALOA,PRESA GUILLERMO BLAKE AGUILAR,LÉNTICO (HUMEDAL),PRESA,26.172376,-108.30403
OCPNO5400,POZO CNA-264 (ALHUEY),,2503,RIO MOCORITO,PACÍFICO NORTE,SINALOA,ANGOSTURA,ACUÍFERO RIO MOCORITO,SUBTERRÁNEO,POZO,25.37833,-108.13493
OCPNO5401,POZO CNA-268 (AGUSTINA RAMIREZ),,2503,RIO MOCORITO,PACÍFICO NORTE,SINALOA,ANGOSTURA,ACUÍFERO RIO MOCORITO,SUBTERRÁNEO,POZO,25.31937,-108.15846
OCPNO5402,SAN ANTONIO - (SINALOA),,2503,RIO MOCORITO,PACÍFICO NORTE,SINALOA,ANGOSTURA,ACUÍFERO RIO MOCORITO,SUBTERRÁNEO,POZO,25.365346,-108.161147
OCPNO6191,POZO ACUIFERO RIO CULIACAN 21,,2504,RIO CULIACAN,PACÍFICO NORTE,SINALOA,NAVOLATO,ACUÍFERO RIO CULIACAN,SUBTERRÁNEO,POZO,24.66738333,-107.5836583
OCPNO6192,POZO ACUIFERO RIO CULIACAN 22,,2504,RIO CULIACAN,PACÍFICO NORTE,SINALOA,CULIACÁN,ACUÍFERO RIO CULIACAN,SUBTERRÁNEO,POZO,24.667,-107.503925
OCPNO6193,POZO ACUIFERO RIO PIAXTLA 1,,2507,RIO PIAXTLA,PACÍFICO NORTE,SINALOA,SAN IGNACIO,ACUÍFERO RIO PIAXTLA,SUBTERRÁNEO,POZO,23.93472222,-106.4219583
OCPNO6194,POZO ACUIFERO RIO PIAXTLA 2,,2507,RIO PIAXTLA,PACÍFICO NORTE,SINALOA,SAN IGNACIO,ACUÍFERO RIO PIAXTLA,SUBTERRÁNEO,POZO,23.88966389,-106.4916083
OCPNO6195,POZO ACUIFERO RIO PIAXTLA 3,,2507,RIO PIAXTLA,PACÍFICO NORTE,SINALOA,SAN IGNACIO,ACUÍFERO RIO PIAXTLA,SUBTERRÁNEO,POZO,23.92166944,-106.6216361
OCPNO6196,POZO ACUIFERO RIO PIAXTLA 4,,2507,RIO PIAXTLA,PACÍFICO NORTE,SINALOA,SAN IGNACIO,ACUÍFERO RIO PIAXTLA,SUBTERRÁNEO,POZO,23.78998333,-106.6028167
OCPNO6197,POZO ACUIFERO RIO PIAXTLA 5,,2507,RIO PIAXTLA,PACÍFICO NORTE,SINALOA,SAN IGNACIO,ACUÍFERO RIO PIAXTLA,SUBTERRÁNEO,POZO,23.84219722,-106.6595139
OCPNO6198,POZO ACUIFERO RIO PRESIDIO 1,,2509,RIO PRESIDIO,PACÍFICO NORTE,SINALOA,CONCORDIA ,ACUÍFERO RIO PRESIDIO,SUBTERRÁNEO,POZO,23.41651389,-106.2077194
OCPNO6199,POZO ACUIFERO RIO PRESIDIO 3,,2509,RIO PRESIDIO,PACÍFICO NORTE,SINALOA,CONCORDIA ,ACUÍFERO RIO PRESIDIO,SUBTERRÁNEO,POZO,23.24243056,-106.0491
OCPNO6200,POZO ACUIFERO RIO PRESIDIO 4,,2509,RIO PRESIDIO,PACÍFICO NORTE,SINALOA,CONCORDIA ,ACUÍFERO RIO PRESIDIO,SUBTERRÁNEO,POZO,23.25346111,-106.1281028
OCPNO6201,POZO ACUIFERO RIO PRESIDIO 5,,2509,RIO PRESIDIO,PACÍFICO NORTE,SINALOA,MAZATLAN,ACUÍFERO RIO PRESIDIO,SUBTERRÁNEO,POZO,23.24684167,-106.2103944
OCPNO6202,POZO ACUIFERO RIO PRESIDIO 6,,2509,RIO PRESIDIO,PACÍFICO NORTE,SINALOA,MAZATLAN ,ACUÍFERO RIO PRESIDIO,SUBTERRÁNEO,POZO,23.33532222,-106.2449306
OCPNO6203,POZO ACUIFERO RIO PRESIDIO 12,,2509,RIO PRESIDIO,PACÍFICO NORTE,SINALOA,CONCORDIA ,ACUÍFERO RIO PRESIDIO,SUBTERRÁNEO,POZO,23.14121389,-106.0568028
OCPNO6204,POZO ACUIFERO RIO BALUARTE 1,,2510,RIO BALUARTE,PACÍFICO NORTE,SINALOA,ROSARIO,ACUÍFERO RIO BALUARTE,SUBTERRÁNEO,POZO,23.06633,-105.8432
OCPNO6205,POZO ACUIFERO RIO BALUARTE 3,,2510,RIO BALUARTE,PACÍFICO NORTE,SINALOA,ROSARIO,ACUÍFERO RIO BALUARTE,SUBTERRÁNEO,POZO,23.03572,-105.72628
OCPNO6206,POZO ACUIFERO RIO BALUARTE 4,,2510,RIO BALUARTE,PACÍFICO NORTE,SINALOA,ROSARIO,ACUÍFERO RIO BALUARTE,SUBTERRÁNEO,POZO,23.03794,-105.79648
OCPNO6207,POZO ACUIFERO RIO BALUARTE 5,,2510,RIO BALUARTE,PACÍFICO NORTE,SINALOA,ROSARIO,ACUÍFERO RIO BALUARTE,SUBTERRÁNEO,POZO,22.95223611,-105.8751556
OCPNO6208,POZO ACUIFERO RIO BALUARTE 6,,2510,RIO BALUARTE,PACÍFICO NORTE,SINALOA,ROSARIO,ACUÍFERO RIO BALUARTE,SUBTERRÁNEO,POZO,23.02843,-105.95078
OCPNO6209,POZO ACUIFERO RIO BALUARTE 7,,2510,RIO BALUARTE,PACÍFICO NORTE,SINALOA,ROSARIO,ACUÍFERO RIO BALUARTE,SUBTERRÁNEO,POZO,23.05592,-105.96323
OCPNO6210,POZO ACUIFERO RIO BALUARTE 8,,2510,RIO BALUARTE,PACÍFICO NORTE,SINALOA,ROSARIO,ACUÍFERO RIO BALUARTE,SUBTERRÁNEO,POZO,23.09281,-105.9861
OCPNO6211,POZO ACUIFERO RIO BALUARTE 9,,2510,RIO BALUARTE,PACÍFICO NORTE,SINALOA,ROSARIO,ACUÍFERO RIO BALUARTE,SUBTERRÁNEO,POZO,22.94911,-105.91082
OCPNO6212,POZO ACUIFERO RIO BALUARTE 10,,2510,RIO BALUARTE,PACÍFICO NORTE,SINALOA,ROSARIO,ACUÍFERO RIO BALUARTE,SUBTERRÁNEO,POZO,22.93400556,-105.9231444
OCPNO6213,POZO ACUIFERO RIO BALUARTE 11,,2510,RIO BALUARTE,PACÍFICO NORTE,SINALOA,ROSARIO,ACUÍFERO RIO BALUARTE,SUBTERRÁNEO,POZO,22.91075833,-105.9220222
OCPNO6214,POZO ACUIFERO RIO BALUARTE 12,,2510,RIO BALUARTE,PACÍFICO NORTE,SINALOA,ROSARIO,ACUÍFERO RIO BALUARTE,SUBTERRÁNEO,POZO,22.92012,-105.90926
OCPNO6215,POZO ACUIFERO RIO BALUARTE 15,,2510,RIO BALUARTE,PACÍFICO NORTE,SINALOA,ROSARIO,ACUÍFERO RIO BALUARTE,SUBTERRÁNEO,POZO,22.93834,-105.82045
OCPNO6216,POZO ACUIFERO RIO BALUARTE 19,,2510,RIO BALUARTE,PACÍFICO NORTE,SINALOA,ROSARIO,ACUÍFERO RIO BALUARTE,SUBTERRÁNEO,POZO,22.92505,-105.8891083
OCPNO6217,CNA-7 EL BATALLON,,2503,RIO MOCORITO,PACÍFICO NORTE,SINALOA,ANGOSTURA,ACUÍFERO RIO MOCORITO,SUBTERRÁNEO,POZO,25.28944444,-108.1972222
OCPNO6218,CNA-86 LA URRACA,,2509,RIO PRESIDIO,PACÍFICO NORTE,SINALOA,MAZATLAN,ACUÍFERO RIO PRESIDIO,SUBTERRÁNEO,POZO,23.18721667,-106.2336194
OCPNO6219,CNA-6 COFRADIA,,2509,RIO PRESIDIO,PACÍFICO NORTE,SINALOA,MAZATLAN ,ACUÍFERO RIO PRESIDIO,SUBTERRÁNEO,POZO,23.33111111,-106.2505639
OCPNO6220,CNA-175 CUBIRI DE LA MAQUINA,,2502,RIO SINALOA,PACÍFICO NORTE,SINALOA,SINALOA,ACUÍFERO RIO SINALOA,SUBTERRÁNEO,POZO,25.81944444,-108.2958333
OCPNO6221,CNA-S/N EL SABINO,,2502,RIO SINALOA,PACÍFICO NORTE,SINALOA,GUASAVE,ACUÍFERO RIO SINALOA,SUBTERRÁNEO,POZO,25.6825,-108.3930556
OCPNO6222,CNA-350 LAS CABANILLAS,,2501,RIO FUERTE,PACÍFICO NORTE,SINALOA,EL FUERTE,ACUÍFERO RIO FUERTE,SUBTERRÁNEO,POZO,26.38477778,-108.6326944
OCPNO6223,CNA-57,,2501,RIO FUERTE ,PACÍFICO NORTE,SINALOA,EL FUERTE,ACUÍFERO RIO FUERTE,SUBTERRÁNEO,POZO,25.93269444,-108.9440556
OCPNO6224,CNA-500 EL GUAYABO,,2501,RIO FUERTE,PACÍFICO NORTE,SINALOA,AHOME,ACUÍFERO RIO FUERTE,SUBTERRÁNEO,POZO,25.93905556,-109.1488333
OCPNO6534,Concordia,RIO BALUARTE 1,,,PACÍFICO NORTE,SINALOA,Concordia,Rio las Charcas,LÓTICO,RÍO,23.42240278,-105.9185361
OCPNO6535,El Rosario,RIO BALUARTE 1,,,PACÍFICO NORTE,SINALOA,El Rosario,Panuco,LÓTICO,RÍO,23.20628889,-105.9003139
OCPNO6547,RIO HUMAYA-GUATENIPA,RIO HUMAYA,,,PACÍFICO NORTE,SINALOA,BADIRAGUATO ,RIO HUMAYA,LÓTICO,RÍO,25.303333,-107.254167
OCPNO6548,RIO HUMAYA-LOS NEGRITOS,RIO HUMAYA,,,PACÍFICO NORTE,SINALOA,BADIRAGUATO ,RIO HUMAYA,LÓTICO,RÍO,25.311667,-107.282222
OCPNO6549,RIO HUMAYA-MORIRATO,RIO HUMAYA,,,PACÍFICO NORTE,SINALOA,BADIRAGUATO ,RIO HUMAYA,LÓTICO,RÍO,25.328611,-107.334167
OCPNO6550,RIO SAN LORENZO,RIO SAN LORENZO 1,,,PACÍFICO NORTE,SINALOA,CANELAS ,RIO SAN LORENZO,LÓTICO,RÍO,24.655084,-106.689188
OCPNO6551,POZO DE AGUA EL PROFESOR PONCHO,,2506,RIO ELOTA,PACÍFICO NORTE,SINALOA,COSALA,ACUÍFERO RIO ELOTA,SUBTERRÁNEO,POZO,24.404791,-106.690903
OCPNO6552,POZO DE AGUA EL AZAFRAN,,2506,RIO ELOTA,PACÍFICO NORTE,SINALOA,COSALA,ACUÍFERO RIO ELOTA,SUBTERRÁNEO,POZO,24.404218,-106.696613
OCPNO0001RNL21,LAGUNA DE AGUAS TERMALES FRACCIONAMIENTO PORTA ALEGRE,RÍO CULIACÁN,,,PACÍFICO NORTE,SINALOA,CULIACÁN,LAGUNA DE AGUAS TERMALES FRACCIONAMIENTO PORTA ALEGRE,LÉNTICO,HUMEDAL,24.834167,-107.445556
OCPNO0002RNL21,AGUA INFILTRADA FRACC. VILLA BONITA,RÍO CULIACÁN,,,PACÍFICO NORTE,SINALOA,CULIACÁN,RÍO JAMAPA,LÓTICO,RÍO,24.752315,-107.389286
